[
{
"CityName":"Pescara",
"lat":14.21,
"lon":42.46,
},
{
"CityName":"Milan",
"lat":9.19,
"lon":45.46,
},
{
"CityName":"Rome",
"lat":12.48,
"lon":41.89,
},
{
"CityName":"Ancona",
"lat":13.51,
"lon":43.59,
},
{
"CityName":"Venice",
"lat":12.32,
"lon":45.43,
}
]